{
  "schools": [
    { "name": "Peshawar Model School Boys I (Hayatabad)", "lat": 33.9960, "lng": 71.4440 },
    { "name": "Peshawar Model School Boys II (Dalazak Road)", "lat": 34.0250, "lng": 71.5420 },
    { "name": "Peshawar Model School Boys III (Warsak Road)", "lat": 34.0350, "lng": 71.5180 },
    { "name": "Peshawar Model School Boys IV (Charsadda Road)", "lat": 34.0280, "lng": 71.5650 },
    { "name": "Peshawar Model School Girls I (Dalazak Road)", "lat": 34.0245, "lng": 71.5415 },
    { "name": "Peshawar Model School Girls II (Warsak Road)", "lat": 34.0345, "lng": 71.5175 },
    { "name": "Peshawar Model School Girls III (Charsadda Road)", "lat": 34.0275, "lng": 71.5645 },
    { "name": "Peshawar Model School Girls IV (Hayatabad)", "lat": 33.9955, "lng": 71.4435 },
    { "name": "Peshawar Model Degree College (Boys)", "lat": 34.0150, "lng": 71.5600 },
    { "name": "Peshawar Model Degree College (Girls)", "lat": 34.0145, "lng": 71.5595 },
    { "name": "Beaconhouse School System", "lat": 34.0080, "lng": 71.5560 },
    { "name": "The City School", "lat": 34.0120, "lng": 71.5480 },
    { "name": "Roots International Schools", "lat": 33.9980, "lng": 71.4520 },
    { "name": "Edwardes College School", "lat": 34.0100, "lng": 71.5750 },
    { "name": "Lahore Grammar School (LGS)", "lat": 33.9920, "lng": 71.4380 },
    { "name": "ICMS School System", "lat": 34.0200, "lng": 71.5350 },
    { "name": "Frontier Children Academy", "lat": 34.0180, "lng": 71.5280 },
    { "name": "Forward Public School", "lat": 34.0050, "lng": 71.5150 },
    { "name": "St. Mary's High School", "lat": 34.0085, "lng": 71.5720 },
    { "name": "Qurtuba School & College", "lat": 33.9940, "lng": 71.4480 },
    { "name": "Allied School Peshawar Campus", "lat": 34.0220, "lng": 71.5400 },
    { "name": "Oxford Public School", "lat": 34.0160, "lng": 71.5320 },
    { "name": "The Peace School & College", "lat": 34.0010, "lng": 71.4600 },
    { "name": "Pak-Turk Maarif International School", "lat": 33.9890, "lng": 71.4350 },
    { "name": "Frontier Model School", "lat": 34.0300, "lng": 71.5500 },
    { "name": "Rehman Baba School System", "lat": 34.0130, "lng": 71.5250 },
    { "name": "Iqra School System", "lat": 34.0070, "lng": 71.5100 },
    { "name": "The Knowledge School", "lat": 34.0190, "lng": 71.5450 },
    { "name": "Usman Public School", "lat": 34.0110, "lng": 71.5380 },
    { "name": "Khyber Model School", "lat": 34.0260, "lng": 71.5550 },
    { "name": "Hudaibiya Public School", "lat": 34.0040, "lng": 71.5200 },
    { "name": "Al-Huda International School (Peshawar Campus)", "lat": 33.9970, "lng": 71.4550 }
  ]
}
